Facility Name,Facility,NumberOfUnits,Latitude,Longitude,WindTurbineManufacturer
AB Tehachapi Wind Farm,AB Tehachapi,31,35.053289,-118.268631,Vestas
Adair Wind Farm I,Adair,1,41.499234,-94.692628,Vestas
Adair Wind Farm II,Adair,230,41.499234,-94.692628,Siemens
Adams Wind Project,Adams Wind Project,12,43.680643,-92.701006,Alstom
Aegir II,Aegir II,100,43.098,-86.597,
Aero Turbine,Aero Turbine,39,33.7437,-115.9925,
Aeroman Repower Wind Farm,Aeroman repower (2003),2,35.044965,-118.278036,GE Energy
Agassiz Beach Wind Farm,Agassiz Beach,3,46.8844,-96.5042,Vestas
Agriwind Wind Farm,Agriwind,4,41.252069,-89.579542,Suzlon Energy Company
Ainsworth Wind Energy Facility,Ainsworth Wind Energy Facility,36,42.460023,-99.876037,Vestas
Airforce Wind Farm,Airforce,1,43.0759678,-107.2902839,Gamesa
Akron-Westfield School District Wind Farm,Akron-Westfield School District,1,42.7859,-96.5836,Vestas
Alaska Village Cooperative Wind Farm,Alaska Village Cooperative,3,60.5315,-165.109,Northern Power Systems
Alite Wind Farm,Alite Wind Farm,8,35.04046,-118.29939,Vestas
Allegheny Ridge Wind Farm,Allegheny Ridge wind farm,40,40.397243,-78.546156,Gamesa
Alta I,Alta I,100,45.6375,-120.605278,GE Energy
Alta II (Vestas),Alta II (Vestas),50,45.6375,-120.605278,Vestas
Alta III,Alta III,50,45.6375,-120.605278,Vestas
Alta IV,Alta IV,34,45.6375,-120.605278,Vestas
Alta IX,Alta IX,44,45.6375,-120.605278,Vestas
Alta Mesa I Wind Farm,Alta Mesa I,117,33.9095,-116.734,Danwin
Alta Mesa II Wind Farm,Alta Mesa II,42,33.9095,-116.734,Vestas
Alta V,Alta V,56,45.6375,-120.605278,Vestas
Alta VI,Alta VI,50,45.6375,-120.605278,Vestas
Alta VII,Alta VII,56,45.6375,-120.605278,Vestas
Alta VIII,Alta VIII,50,45.6375,-120.605278,Vestas
Altech Energy Wind Farm,Altech Energy Ltd,144,37.7347,-121.652,Enertech
Altech III (a),Altech III,51,33.9095,-116.734,NEG Micon
Altech III (b),Altech III,201,33.9095,-116.734,NEG Micon
Altech III Wind Farm,Altech III,252,34.1266596,-117.2352765,NEG Micon
American Windmill Museum Wind Farm,American Windmill Museum,1,33.5637,-101.869,Vestas
Antelope Ridge Wind Farm,Antelope Ridge Wind Farm,164,45.207914,-117.914075,Undetermined
Apex Offshore Phase 1,Apex Offshore Phase 1,165,34.169,-77.12,
Apex Offshore Phase 2,Apex Offshore Phase 2,360,34.169,-76.91,
Aragonne Mesa Wind Farm,Aragonne Mesa,90,34.796889,-105.054188,Mitsubishi
Armenia Mountain Wind Energy Project,Armenia Mountain Wind Energy Project,67,41.763272,-76.842613,GE Energy
Arnold Wind Farm,Arnold Wind Farm,1,43.762,-95.8274,Vestas
Ashtabula - NextEra Wind Farm,Ashtabula - NextEra,99,47.123021,-97.895,GE Energy
Ashtabula - Otter Tail Wind Farm,Ashtabula - Otter Tail,32,47.123021,-97.895,GE Energy
Ashtabula II Wind Farm,Ashtabula II,80,47.133005,-97.950597,GE Energy
Ashtabula III,Ashtabula III,39,47.135175,-97.935219,GE Energy
Aurora Wal Mart Wind Farm,Aurora Wal Mart,1,39.760714,-104.773079,Bergey Windpower
Baileyville Wind Project,Baileyville Wind Project,40,41.9227,-89.3006,Gamesa
Baldwin Wind Farm,Baldwin Wind Farm,64,47.059561,-100.776,GE Energy
Banner Wind Project,Banner Wind Project,18,64.507553,-165.419189,Entegrity
Bartlett's Ocean View Wind Farm,Bartlett's Ocean View Wind Farm,1,41.259168,-70.131913,Wind Energy Solutions
Barton Chapel Wind Farm,Barton Chapel Wind,60,33.073442,-98.30084,Gamesa
Barton Wind Farm,Barton Wind Farm,80,43.365893,-93.095412,Gamesa
Baseline Wind Energy Facility,Baseline Wind Energy Facility,250,45.626863,-120.162885,Undetermined
Bear Creek Wind Farm,Bear Creek,12,41.1801,-75.7216,Gamesa
Beaulieu Wind Farm,Beaulieu,1,46.551388,-67.808333,Atlantic Orient Co.
Beech Ridge Energy Wind Farm,Beech Ridge Energy,56,38.06692,-80.498571,GE Energy
Bennett Creek,Bennett Creek,10,43.0466399,-115.485481,Suzlon Energy Company
Bent Tree Wind Farm,Bent Tree Wind Farm,122,43.78544,-93.452282,Vestas
Bergey Windpower Headquarters Wind Farm,Bergey Windpower Headquarters,1,35.243076,-97.456799,Bergey Windpower 50-kW
Berkshire Wind Farm,Berkshire Wind Farm,10,42.636188,-73.244491,
Big Horn 2,Big Horn 2,33,45.871889,-120.292354,GE Energy
Big Horn Wind Power Project,Big Horn Wind Power Project,133,45.935948,-120.284085,GE Energy
Big Sky Wind Facility,Big Sky Wind Facility,132,41.579967,-89.46177,Suzlon Energy Company
Big Smile Wind Farm (Dempsey Ridge),Big Smile Wind Farm (Dempsey Ridge),66,35.508363,-99.739494,Acciona
Big Spring I Wind Farm,Big Spring I,42,32.146715,-101.398244,Vestas
Big Spring II Wind Farm,Big Spring II,4,32.146715,-101.398244,Vestas
Big Wind Power Project (Lanai),Big Wind Power Project (Lanai),170,20.828844,-156.928825,Undetermined
Big Windy (Great Escape Restaurant Turbine),Big Windy (Great Escape Restaurant Turbine),0.108,41.95547,-87.865193,Micon
Biglow Canyon Phase II Wind Farm,Biglow Canyon Phase II,65,45.6375,-120.605278,Siemens
Biglow Canyon Phase III Wind Farm,Biglow Canyon Phase III,76,45.6375,-120.605278,Siemens
Biglow Canyon Wind Farm,Biglow Canyon Wind Farm,76,45.629003,-120.605607,Vestas
Bingham Lake Wind Farm,Bingham Lake Wind Farm,12,43.909,-95.0464,Suzlon Energy Company
Bison Wind 2A,Bison Wind 2A,15,46.9815,-101.507421,Siemens
Bison Wind Farm 1A,Bison Wind 1A,33,46.9815,-101.507421,Siemens
Bitworks Wind Farm,Bitworks,1,35.976663,-94.316975,NEG Micon
Blackfeet Nation Wind Farm,Blackfeet Nation,1,48.554858,-113.010503,Vestas
Block Island Wind Farm,Block Island Wind Farm,8,41.1,-71.53,Undetermined
Blue Breezes I & II Wind Farm,Blue Breezes I & II,2,43.6352,-94.0942,Suzlon Energy Company
Blue Canyon II Wind Farm,Blue Canyon II,84,34.8582,-98.54752,Vestas
Blue Canyon V Wind Farm,Blue Canyon V,66,34.8582,-98.54752,GE Energy
Blue Canyon Wind Farm,Blue Canyon,45,34.852678,-98.551807,NEG Micon
Blue Creek Wind Farm,Blue Creek Wind Farm,152,41.018286,-84.615355,Gamesa
Blue Sky Green Field Wind Farm,Blue Sky Green Field Wind Farm,88,43.908549,-88.305384,Vestas
Bluegrass Ridge Wind Energy Project,Bluegrass Ridge Wind Energy Project,27,40.092392,-94.51429,Suzlon Energy Company
Bluewater Wind New Jersey,Bluewater Wind New Jersey,116,39.18,-74.14,Undetermined
Bluewater Wind Rhode Island,Bluewater Wind Rhode Island,,41.357,-71.152,
Boondocks Truck Stop Wind Farm,Boondocks Truck Stop,1,42.4703,-93.5624,
Bravo Wind,Bravo Wind,,42.460351,-113.474564,
Brazoria Offshore,Brazoria Offshore,,28.764,-95.33,
Brazos Wind Ranch Wind Farm,Brazos Wind Ranch,160,32.94914,-101.144357,Mitsubishi
"Breezy Bucks (I,II) Salty Dog (I,II) Roadrunner, Windy Dog, Wally's Wind Farm","Breezy Bucks (I,II) Salty Dog (I,II) Roadrunner, Windy Dog, Wally's Wind Farm",7,43.9802442,-96.0105765,Suzlon Energy Company
Brigantine OffshoreMW Phase 1,Brigantine OffshoreMW Phase 1,,39.584,-73.77,
Brigantine OffshoreMW Phase 2,Brigantine OffshoreMW Phase 2,,39.348,-73.969,
Broken Bow Wind Farm,Broken Bow Wind Farm,50,41.400029,-99.573412,Undetermined
Buena Vista Wind Farm I,Buena Vista,211,37.7347,-121.652,Windmaster
Buena Vista Wind Farm II,Buena Vista,38,37.7347,-121.652,Mitsubishi
Buffalo Bear Wind Farm,Buffalo Bear,9,36.573681,-99.573275,Suzlon Energy Company
Buffalo Gap 3 Wind Farm,Buffalo Gap 3,74,32.310556,-100.149167,Siemens
Buffalo Gap II Wind Farm,Buffalo Gap II,155,32.310556,-100.149167,GE Energy
Buffalo Gap Wind Farm,Buffalo Gap,67,32.310556,-100.149167,Vestas
Buffalo Mountain Wind Energy Center I,Buffalo Mountain Wind Energy Center,3,36.115822,-84.333742,Vestas
Buffalo Mountain Wind Energy Center II,Buffalo Mountain Wind Energy Center,15,36.115822,-84.333742,Vestas
Buffalo Ridge II Wind Power Project,Buffalo Ridge II Wind Power Project,105,44.55761,-96.742888,Gamesa
Buffalo Ridge Wind Farm,Buffalo Ridge,73,44.0039,-96.0526,Kenetech
Buffalo Ridge Wind Farm I,Buffalo Ridge Wind Farm I,24,44.422784,-96.834898,Suzlon Energy Company
Bull Creek Wind Farm,Bull Creek Wind Farm,180,32.933099,-101.584425,Mitsubishi
Bull Hill,Bull Hill,19,44.723076,-68.170852,Vestas
Bureau Valley School District Wind Farm,Bureau Valley School District,1,41.4661,-89.678,Vestas
Burley Butte,Burley Butte,13,42.4644,-113.895,GE Energy
Butler Ridge Wind Farm,Butler Ridge Wind Farm,36,43.388524,-88.467332,GE Energy
CWES I Wind Farm,CWES I,18,37.7347,-121.652,Enertech
CWES II Wind Farm,CWES II,6,37.7347,-121.652,Enertech
Cabazon Wind Farm I,Cabazon,53,33.9095,-116.734,Zond
Cabazon Wind Farm II,Cabazon,62,33.9095,-116.734,Vestas
Callahan Divide Wind Energy Center,Callahan Divide Wind Energy Center,76,32.310556,-100.149167,GE Energy
Calverton Wind Farm,Calverton,1,40.927997,-72.7749,Atlantic Orient Co.
Calwind II CEC Wind Farm,Calwind II CEC,13,35.07665,-118.25529,Vestas
Calwind Resources Wind Farm,Calwind Resources,217,35.07665,-118.25529,Bonus
Cameron Ridge Wind Farm,Cameron Ridge,80,35.07665,-118.25529,NEG Micon
Camp Grove Wind Farm,Camp Grove Wind Farm,100,41.088871,-89.656684,GE Energy
Camp Reed,Camp Reed,15,42.443817,-114.320844,GE Energy
Camp Springs II (1Q08) Wind Farm,Camp Springs II (1Q08),59,32.749117,-100.731082,GE Energy
Camp Springs II (4Q07) Wind Farm,Camp Springs II (4Q07),21,32.730924,-100.735803,GE Energy
Camp Springs Wind Farm,Camp Springs,87,32.739516,-100.741382,GE Energy
Camp William Utah National Guard Wind Farm I,Camp William Utah National Guard,1,40.439852,-111.919141,NEG Micon
Camp William Utah National Guard Wind Farm II,Camp William Utah National Guard,1,40.439852,-111.919141,Vestas
Campbell Hill Wind Farm,Campbell Hill,66,42.998955,-106.021366,GE Energy
Caney River,Caney River,111,37.448424,-96.425027,Vestas
Cannon (Various),Cannon (Various),42,35.1317,-118.451,Micon Vestas
Cannon I Wind Farm,Cannon I,8,35.1317,-118.451,Micon
Cannon II Wind Farm,Cannon II,28,35.1317,-118.451,Vestas
Canova Wind Farm,Canova,1,44.169,-97.7158,Micon
Cape Wind Project,Cape Wind,130,41.501805,-70.318333,Siemens
Capricorn Ridge (GE Energy) Wind Farm,Capricorn Ridge (GE Energy),143,31.838061,-100.923965,GE Energy
Capricorn Ridge (Siemens) Wind Farm,Capricorn Ridge (Siemens),65,31.844192,-100.932612,Siemens
Capricorn Ridge Expansion (1Q08) Wind Farm,Capricorn Ridge Expansion (1Q08),95,31.838061,-100.923965,GE Energy
Capricorn Ridge Expansion (2Q08) Wind Farm,Capricorn Ridge Expansion (2Q08),104,31.838061,-100.923965,GE Energy
Caprock Wind Ranch,Caprock Wind Ranch,60,35.043532,-103.583422,Mitsubishi
"Caprock Wind Ranch, phase II","Caprock Wind Ranch, phase II",20,35.043532,-103.583422,Mitsubishi
Carleton College Wind Farm,Carleton College,1,44.4473,-93.1592,NEG Micon
Carroll Wind Farm,Carroll,100,42.112208,-94.910631,GE Energy
Casper Wind Farm,Casper Wind Farm,11,43.01578,-105.993723,GE Energy
Casselman Wind Project,Casselman Wind Project,23,39.793409,-79.001684,GE Energy
Cassia Wind Farm,Cassia Wind Farm,14,42.814261,-114.996665,Suzlon Energy Company
Cedar Creek Wind Farm I (GE),Cedar Creek,53,40.873578,-104.07825,GE Energy
Cedar Creek Wind Farm I (Mitsubishi),Cedar Creek,221,40.873578,-104.07825,Mitsubishi
Cedar Creek Wind Farm II (GE),Cedar Creek II (GE),63,40.868652,-104.092398,GE Energy
Cedar Creek Wind Farm II (Nordex),Cedar Creek II (Nordex),60,40.874623,-104.092569,Nordex
Cedar Hills Wind Facility I,Cedar Hills Wind Facility,13,46.201378,-103.834198,GE Energy
Cedar Hills Wind Facility II,Cedar Hills Wind Facility,13,46.249235,-103.756285,GE Energy
Cedar Point Wind Farm,Cedar Point Wind Farm,139,39.219417,-104.537167,Vestas
Cedar Ridge Wind Farm,Cedar Ridge Wind Farm,41,43.647092,-88.459146,Vestas
Cedro Hill,Cedro Hill,100,27.56341162,-98.91720772,GE Energy
Centennial Wind Energy Project (2006),Centennial Wind Energy Project (2006),40,36.7,-99.85,GE Energy
Centennial Wind Energy Project (2007),Centennial Wind Energy Project (2007),40,36.71,-99.86,GE Energy
Central Plains Wind Farm,Central Plains,33,38.49695,-101.128392,Vestas
Century Expansion (08) Wind Farm,Century Expansion (08),7,42.504142,-93.656316,GE Energy
Century Expansion (4Q07) Wind Farm,Century Expansion (4Q07),2,42.495789,-93.652368,GE Energy
Century Wind Project,Century Wind Project,100,42.504259,-93.646524,GE Energy
Century Wind Project Expansion,Century Wind Project Expansion,35,42.509141,-93.682151,Mitsubishi
Cerro Gordo Wind Farm,Cerro Gordo,55,43.071437,-93.431647,NEG Micon
Chamberlain Wind Project,Chamberlain Wind Project,2,43.8096,-99.3272,Nordex
"Champepaden, Chandler Hills Phase II Wind Farm","Champepaden, Chandler Hills Phase II",3,43.9189,-95.9557,Vestas
Champion (Roscoe II) Wind Farm,Champion (Roscoe II),55,32.457897,-100.581644,Siemens
Chanarambie Wind Farm,Chanarambie,57,43.978567,-96.011081,GE Wind
Chandler Hills Wind Farm,Chandler Hills Wind Farm,3,43.9189,-95.9557,Vestas
Charles City (1Q08) Wind Farm,Charles City (1Q08),38,43.049152,-92.734151,GE Energy
Charles City (2Q08) Wind Farm,Charles City (2Q08),12,43.004101,-92.722392,GE Energy
Chesapeake Bay Test Site,Chesapeake Bay Test Site,1,37.243,-76.062,Gamesa
Chestnut Flats Wind Farm,Chestnut Flats Wind Farm,19,40.357314,-78.594482,Gamesa
Chevak,Chevak,4,61.516803,-165.600108,Northern Power Systems
Cisco Wind Energy Wind Farm,Cisco Wind Energy,4,43.696164,-95.467078,Suzlon Energy Company
City of Geneseo,City of Geneseo,2,41.42597968,-90.154752731323,Vensys
City of Medford Wind Turbine,City of Medford Wind Turbine,1,42.415768,-71.107337,Northern Power Systems
Clarion-Goldfield School Wind Farm,Clarion-Goldfield School,1,42.737179,-93.718132,AOC
Clay Central Everly School Dist Wind Farm,Clay Central/Everly School Dist,1,43.1392,-95.2644,
Cleveland Bay Wind Farm,Cleveland Bay Wind Farm,5,41.608,-81.809,GE Energy
Cleveland Project Phase 2,Cleveland Project Phase 2,,41.725,-81.802,
Clovis Wind Power Project,Clovis Wind Power Project,1,34.412022,-103.196522,Vestas
Coastal Energy (CCAP),Coastal Energy (CCAP),6,46.793272,-124.065341,GE Energy
Colorado Green Wind Power Project,Colorado Green,108,37.725264,-102.592406,GE Energy
Combine Hills II,Combine Hills II,63,45.946742,-118.56828,Mitsubishi
Combine Hills Wind Farm,Combine Hills,41,45.94152,-118.589137,Mitsubishi
Community-Owned Projects,Community-Owned Projects,7,44.0039,-96.0526,Suzlon Energy Company
Conception Wind Project,Conception Wind Project,24,40.246984,-94.675376,Suzlon Energy Company
Condon Wind Project,Condon Wind Project,41,45.282928,-120.272233,Mitsubishi
"Condon Wind Project, phase II","Condon Wind Project, phase II",42,45.306062,-120.255847,Mitsubishi
Conneaut Middle School Wind Turbine,Conneaut Middle School Wind Turbine,1,41.92601,-80.557126,Elecon
Conneaut Wastewater Facility Wind Turbine,Conneaut Wastewater Facility Wind Turbine,1,41.968223,-80.552268,
Consumers 2 Wind Farm,Consumers 2,1,42.0518,-92.9079,Nordtank 65
Coram Energy (Aeroman Repower) Wind Farm I,Coram Energy (Aeroman repower),7,35.072998,-118.264046,GE Energy
Coram Energy (Aeroman Repower) Wind Farm II,Coram Energy (Aeroman repower),3,35.072998,-118.264046,GE Energy
Corn Plus Wind Farm,Corn Plus,2,43.760635,-94.149617,Suzlon Energy Company
Cottonwood Wind Farm,Cottonwood,12,44.4068,-95.6727,Suzlon Energy Company
Cow Branch Wind Energy Center Wind Farm,Cow Branch Wind Energy Center,24,40.423897,-95.477781,Suzlon Energy Company
Crane Creek Wind Farm,Crane Creek,66,43.410108,-92.51652,GE Energy
Crescent Ridge Wind Farm,Crescent Ridge,33,41.252365,-89.579523,Vestas
Criterion Wind Park,Criterion Wind Park,28,39.317075,-79.377451,Clipper
Crofton Hills Wind Farm,Crofton Hills,14,42.700138,-97.505236,Vestas
Crookston Wind Farm,Crookston,1,47.7716,-96.6059,NA
Crossroads (2.3 MW),Crossroads (2.3 MW),95,36.09363399,-98.76717026,Siemens
Crossroads (3 MW),Crossroads (3 MW),3,36.019889,-98.669894,Siemens
Crosswinds (2.3 MW),Crosswinds (2.3 MW),95,36.019889,-98.669894,Siemens
Crosswinds (3 MW),Crosswinds (3 MW),3,36.019889,-98.669894,Siemens
Crosswinds Wind Farm,Cross Winds,10,43.075449,-94.895575,Suzlon Energy Company
Crow Lake Wind,Crow Lake Wind,108,43.920959,-98.7282157,GE Energy
Crystal Lake - Clipper (08) Wind Farm,Crystal Lake - Clipper (08),76,43.221728,-93.833227,Clipper
Crystal Lake - Clipper (09) Wind Farm,Crystal Lake - Clipper (09),4,41.8780025,-93.097702,Clipper
Crystal Lake - GE Energy Wind Farm,Crystal Lake - GE Energy,100,43.194201,-93.860521,GE Energy
Crystal Lake II,Crystal Lake II,80,43.16151,-93.855786,Clipper
Crystal Lake III,Crystal Lake III,44,43.304401,-93.824029,GE Energy
Danielson Wind,Danielson Wind,12,45.066913,-94.738026,Alstom
Day County Wind Project,Day County Wind Project,66,45.457157,-97.754831,GE Energy
Deepwater Wind Farm,Deepwater Wind Farm,96,39.091,-74.306,
Delaware Mountain Wind Farm,Delaware Mountain,38,31.670717,-104.739534,Zond
Delta Junction Wind Farm,Delta Junction,1,64.069461,-145.717661,DES
Dempsey Ridge Wind Farm,Dempsey Ridge Wind Farm,66,35.508363,-99.739494,Acciona
Desert Sky Wind Farm,Desert Sky Wind Farm,107,30.926626,-102.100067,GE Energy
Desert Wind Power,Desert Wind Power,150,36.435688,-76.232786,
Diablo Winds Wind Farm,Diablo Winds Wind Farm,31,37.7347,-121.652,Vestas
Diamond Willow Extension,Diamond Willow Extension,7,46.281621,-104.271355,GE Energy
Diamond Willow Wind (07) Wind Farm,Diamond Willow Wind (07),1,46.274903,-104.183013,GE Energy
Diamond Willow Wind (08) Wind Farm,Diamond Willow Wind (08),12,46.268046,-104.201742,GE Energy
Difwind I Wind Farm,Difwind I,115,33.9095,-116.734,Micon
Difwind II Wind Farm,Difwind II,39,33.9095,-116.734,Micon
Difwind V Wind Farm,Difwind V,73,33.9095,-116.734,Micon
Dillon Wind Farm,Dillon,45,33.939323,-116.589503,Mitsubishi
Dispersed Project Wind Farm,Dispersed Project,9,44.4039,-96.2646,Vestas
Don Sneve Wind Project,Don Sneve Wind Project,1,44.412,-96.2481,NEG Micon
Dry Lake II Wind Farm,Dry Lake II,31,34.635651,-110.357351,Suzlon Energy Company
Dry Lake Wind Farm,Dry Lake,30,34.635651,-110.357351,Suzlon Energy Company
Dunlap Wind Energy Project,Dunlap Wind Energy Project,74,42.013591,-106.21419,GE Energy
Dutch Hill/Cohocton Wind Farm,Dutch Hill/Cohocton Wind Farm,50,42.52342,-77.500303,Clipper
Dutch Pacific Wind Farm,Dutch Pacific,20,33.9095,-116.734,NedWind
East Ridge Wind Farm,East Ridge Wind Farm,8,44.4039,-96.2646,Suzlon Energy Company
East Winds (formerly Altech III) Wind Farm,East Winds (formerly Altech III),7,33.9095,-116.734,NEG Micon
Echo 1-7 Wind Farm,Echo 1-7,27,45.521953,-119.248549,Vestas
Echo 8-9 Wind Farm,Echo 8-9,10,45.521953,-119.248549,REpower
EcoGrove Wind Farm,EcoGrove,67,42.452903,-89.840816,Acciona
Edom Hills (repower) Wind Farm,Edom Hills (repower),8,33.9095,-116.734,Clipper
Elbow Creek Wind Farm,Elbow Creek Wind Farm,53,32.133515,-101.415676,Siemens
Eldora-New Providence Schools Wind Farm,Eldora-New Providence Schools,1,42.3794,-93.2497,NEG Micon
Elk City II,Elk City II,66,35.569747,-99.448256,GE Energy
Elk City Wind Energy Center,Elk City Wind Energy Center,43,35.472664,-99.442602,Siemens
Elk River Wind Farm,Elk River Wind Farm,100,37.586575,-96.547093,GE Energy
Elkhorn Ridge Wind Farm,Elkhorn Ridge,27,42.654519,-97.660224,Vestas
Elkhorn Valley (07) Wind Farm,Elkhorn Valley (07),59,45.05034,-117.780011,Vestas
Elkhorn Valley (08) Wind Farm,Elkhorn Valley (08),2,45.05034,-117.780011,Vestas
Elm Creek II,Elm Creek II,62,43.756372,-94.956014,Mitsubishi
Elm Creek Wind Farm,Elm Creek,66,43.780285,-94.845586,GE Energy
Endeavor (2Q08) Wind Farm,Endeavor (2Q08),25,43.427012,-95.414987,Clipper
Endeavor (3Q07) Wind Farm,Endeavor (3Q07),10,43.416841,-95.423477,Clipper Windpower
Endeavor (3Q08) Wind Farm,Endeavor (3Q08),5,43.432497,-95.452752,Clipper
Endeavor II Wind Farm,Endeavor II,20,43.427012,-95.414987,Clipper
Energy Unlimited Wind Farm I,Energy Unlimited,148,33.9095,-116.734,Bonus; Delta; Micon
Energy Unlimited Wind Farm II,Energy Unlimited,10,33.9095,-116.734,Nordex
Eva Creek Wind Project,Eva Creek Wind Project,12,64.0602,-148.9054,REpower
Ewington Wind Farm,Ewington Wind Farm,10,43.621733,-95.678694,Suzlon Energy Company
F.E. Warren Air Force Base Wind Farm,F.E. Warren Air Force Base,2,41.175569,-104.880778,Vestas
FERN Blue Ribbon Wind Farm I,FERN Blue Ribbon Wind Farm I,6,39.311,-74.41,XEMC-Darwind
FERN Blue Ribbon Wind Farm II*,FERN Blue Ribbon Wind Farm II*,66,39.183,-74.428,Undetermined
Falmouth Wastewater,Falmouth Wastewater,1,41.566789,-70.608791,Vestas
Farmer's Cooperatives Wind Farm,Farmer's Cooperatives,6,43.612366,-95.142403,Vestas
Farmers City Wind Farm,Farmers City,73,40.438596,-95.469482,Gamesa
Federated Wind Farm,Federated,1,46.729553,-94.6858998,Suzlon Energy Company
Fenner Wind Power Project,Fenner Wind Power Project,20,43.000482,-75.762498,GE Energy
Fenton Wind Power Project,Fenton Wind Power Project,137,43.909806,-95.965884,GE Energy
Fire Island Wind Project,Fire Island Wind Project,11,61.144146,-150.217652,GE Energy
First State Marine Wind,First State Marine Wind,1,38.836,-75.154,Gamesa
Flat Ridge Wind Farm,Flat Ridge Wind Farm,40,37.3694801,-98.4603352,Clipper
Flat Water Wind Farm,Flat Water Wind Farm,40,40.001077,-95.955119,GE Energy
Flying Cloud Wind Farm,Flying Cloud,29,43.416975,-95.422282,GE Energy
Foote Creek Rim I Wind Farm,Foote Creek Rim I,69,41.652605,-106.189914,Mitsubishi
Foote Creek Rim II Wind Farm,Foote Creek Rim II,3,41.663881,-106.186001,Mitsubishi
Foote Creek Rim III Wind Farm,Foote Creek Rim III,33,41.643488,-106.198876,NEG Micon
Foote Creek Rim IV Wind Farm,Foote Creek Rim IV,28,41.626456,-106.202095,Mitsubishi
Forbes Park Wind Farm,Forbes Park,1,42.3917638,-71.0328284,
Forest City High School Wind Farm,Forest City High School,1,43.266011,-93.653378,Nordex
Forest Creek Wind Farm,Forest Creek Wind Farm,54,31.937348,-101.312513,Siemens
Fort Totten Wind Farm,Fort Totten,1,47.9817,-99.0029,NEG Micon
Forward Expansion Wind Farm,Forward Expansion,20,43.631519,-88.556421,GE Energy
Forward Phase I Wind Farm,Forward Phase I,66,43.606819,-88.534834,GE Energy
Forward Wind Farm,Forward,14,40.11541,-78.805529,Suzlon Energy Company
Fossil Gulch Wind Park,Fossil Gulch Wind Park,7,42.814261,-114.996665,GE Energy
Fowler Ridge II Wind Farm,Fowler Ridge II,133,40.613872,-87.318692,GE Energy
Fowler Ridge Wind Farm Phase I (Clipper),Fowler Ridge Wind Farm Phase I (Clipper),40,40.613872,-87.318692,Clipper
Fowler Ridge Wind Farm Phase I (Vestas),Fowler Ridge Wind Farm Phase I (Vestas),182,40.613872,-87.318692,Vestas
Fox Islands Wind Project,Fox Islands Wind Project,1,44.088391,-68.857802,GE Energy
G. McNeilus Wind Farm,G. McNeilus Wind Farm,9,43.554778,-92.728908,
G.M. Allen & Sons Wind Farm,G.M. Allen & Sons,1,44.5704,-68.7379,Atlantic Orient Co.
G3 Wind Farm,G3 Wind Farm,3,43.5141,-116.088,
GSG Wind Farm,GSG Wind Farm,40,41.710895,-89.050004,Gamesa
Galveston Offshore Wind Farm,Galveston Offshore Wind Farm,50,29.161,-94.797,XEMC
Galveston Offshore Wind Phase 2,Galveston Offshore Wind Phase 2,75,29.16,-94.747,XEMC
Galveston Test,Galveston Test,1,29.161,-94.773,Mingyang
Garden State Offshore Wind Farm,Garden State Offshore Wind Farm,96,39.08,-74.310556,Undetermined
Garnet Wind,Garnet Wind,13,33.918267,-116.701076,
Gary Wind Energy Project,Gary Wind Energy Project,1,44.7906,-96.4546,Vestas
Glacier Hills,Glacier Hills,90,43.572059,-89.111309,Vestas
Glacier I Wind Farm,Glacier I,71,48.555639,-112.120992,Acciona
Glacier II,Glacier II,69,48.555639,-112.120992,Acciona
Glacier Wind II Wind Farm,Glacier Wind II,69,46.8796822,-110.3625658,Acciona WP
Glenrock III Wind Farm,Glenrock III,26,43.0347917,-105.8439737,GE Energy
Glenrock Wind Farm,Glenrock,66,43.004101,-105.81286,GE Energy
Goat Mountain Phase I Wind Farm,Goat Mountain Phase I,80,31.908696,-100.824122,Mitsubishi
Goat Mountain Phase II Wind Farm,Goat Mountain Phase II,29,31.910008,-100.869355,Mitsubishi
Gob Nob,Gob Nob,1,39.4384551,-89.62847114,Emergya Wind Technologies
Golden Hills Wind Farm,Golden Hills Wind Farm,267,45.547633,-120.761232,Undetermined
Golden Valley Wind Park,Golden Valley Wind Park,8,42.379924,-113.876892,GE Energy
Goodland I Wind Farm,Goodland I,87,40.686441,-87.434993,GE Energy
Goodnoe Hills Wind Farm,Goodnoe Hills,47,45.784293,-120.552475,REpower
Gordon Butte,Gordon Butte,6,46.42836,-110.358231,GE Energy
Goshen North Wind Project,Goshen North Wind Project,83,43.511043,-111.886067,GE Energy
Grafton Technical College Wind Farm,Grafton Technical College,1,48.406139,-97.426202,
Grand Meadow Wind Farm,Grand Meadow,67,43.707798,-92.654071,GE Energy
Grand Ridge II Wind Farm,Grand Ridge II,34,41.15496,-88.750234,GE Energy
Grand Ridge III Wind Farm,Grand Ridge III,40,41.15496,-88.750234,GE Energy
Grand Ridge Wind Farm,Grand Ridge Wind Farm,66,40.999966,-88.401693,GE Energy
Grant County Wind Farm,Grant County Wind Farm,10,45.82868,-95.795288,Suzlon Energy Company
Gray County Wind Farm,Gray County Wind Farm,170,37.5855,-100.384,Vestas
Grays Harbor Demonstration Project,Grays Harbor Demonstration Project,1,46.858,-124.187,
Great Lakes Science Center Wind Farm,Great Lakes Science Center,1,41.506659,-81.696816,Vestas
Great Plains Wind Farm,Great Plains,76,36.285809,-101.358662,GE Energy
Green Mountain Energy Wind Farm I,AMP-Ohio/Green Mountain Energy Wind Farm,2,41.374909,-83.738093,Vestas
Green Mountain Energy Wind Farm II,AMP-Ohio/Green Mountain Energy Wind Farm,2,41.374909,-83.738093,Vestas
Green Mountain Wind Farm,Green Mountain Wind Farm,8,39.850753,-79.066629,Nordex
Green Power Wind Farm,Green Power,22,33.9095,-116.734,Zond
Green Ridge Power Wind Farm I,Green Ridge Power,1476,37.7347,-121.652,Kenetech
Green Ridge Power Wind Farm II,Green Ridge Power,41,37.7347,-121.652,Kenetech
Greensburg Wind Farm,Greensburg Wind Farm,10,37.576188,-99.320898,Suzlon Energy Company
Gulf Wind Farm,Gulf Wind,118,27.081328,-97.561619,Mitsubishi
Hackberry Wind Project,Hackberry Wind Project,72,32.765491,-99.413402,Siemens
Hampton Roads Demonstration Project,Hampton Roads Demonstration Project,3,36.965,-76.289,
Hancock County Wind Farm,Hancock County Wind Farm,148,43.066524,-93.70481,Vestas
Happy Jack Wind Farm,Happy Jack,14,41.137532,-104.994929,Suzlon Energy Company
Harbec Plastic Wind Turbine Wind Farm,Harbec Plastic Wind Turbine,1,43.226039,-77.361776,Fuhrlander
Harbeck Plastic Wind Turbine Wind Farm,Harbeck Plastic Wind Turbine,1,43.16103,-77.6109219,Fuhrlander
Hardin-Hilltop Wind Project,Hardin-Hilltop Wind Project,7,42.086204,-94.349999,Suzlon Energy Company
Hardscrabble Wind Power Project,Hardscrabble Wind Power Project,37,43.076452,-74.859602,Gamesa
Hartland Wind Farm,Hartland Wind Farm,333,48.556661,-101.7777865,
Harvest Wind Farm I,Harvest Wind Farm,43,45.855664,-120.288548,Siemens
Harvest Wind Farm II,Harvest Wind Farm,32,43.829789,-83.222872,Vestas
Hatchet Ridge Wind Farm,Hatchet Ridge Wind Farm,44,40.875836,-121.741233,Siemens
Hawaii Renewable,Hawaii Renewable,16,20.2564,-155.850409,Vestas
Hawi Renewable Wind Farm,Hawi Renewable,16,19.5429151,-155.6658568,Vestas
Haxton Wind CommRE,Haxton Wind CommRE,20,40.627829,-102.636852,
Hay Canyon Wind Farm,Hay Canyon Wind Farm,48,45.479548,-120.741491,Suzlon Energy Company
High Lonesome Wind Farm,High Lonesome,40,34.498433,-105.927606,Clipper
High Plains Wind Farm,High Plains,66,41.665943,-106.043487,GE Energy
High Sheldon Energy Wind Farm,High Sheldon Energy Wind Farm,75,42.721106,-78.406972,GE Energy
High Winds Wind Farm,High Winds,90,38.124844,-121.764915,Vestas
Highland New Wind,Highland New Wind,19,38.464544,-79.663324,
Highland Wind Project,Highland Wind Project,25,40.294234,-78.699152,Nordex
Highmore Wind Energy Project,Highmore Wind Energy Project,27,44.380689,-99.441683,GE Energy
Hilltop Power Wind Farm,Hilltop Power,1,46.729553,-94.6858998,
Hilltop Wind Farm,Hilltop,1,43.9985815,-96.3128117,DeWind
Holy Name Central Catholic School Wind Turbine,Holy Name Central Catholic School Wind Turbine,1,42.24087,-71.783879,Vestas
Hooper Bay Wind Farm,Hooper Bay,3,61.53572,-166.097182,DES
Hoosier Wind Project,Hoosier Wind Project,53,40.636707,-87.299953,REpower
Hopkins Ridge II Wind Farm,Hopkins Ridge II,4,46.408163,-117.813199,Vestas
Hopkins Ridge Wind Farm,Hopkins Ridge Wind Farm,83,46.420651,-117.802155,Vestas
Horse Butte Wind Project,Horse Butte Wind Project,32,43.491689,-111.789344,Vestas
Horse Hollow Expansion Wind Farm,Horse Hollow Expansion,2,32.243193,-100.265633,GE Energy
Horse Hollow II Wind Farm,Horse Hollow II,130,32.243826,-100.131898,Siemens
Horse Hollow III Wind Farm,Horse Hollow III,149,32.243125,-100.045245,GE Energy
Horse Hollow Wind Energy Center,Horse Hollow Wind Energy Center,142,32.230566,-100.047991,GE Energy
Horseshoe Bend Wind Farm,Horseshoe Bend,6,47.497516,-111.432567,GE Energy
Hot Springs,Hot Springs,21,42.95,-115.63,Suzlon Energy Company
Howard Wind Energy Project,Howard Wind Energy Project,2,44.0076,-97.5267,Micon
Hudson Canyon,Hudson Canyon,200,40.151,-73.53,
Hueco Mountain Wind Ranch,Hueco Mountain Wind Ranch,2,31.6966,-106.295,Vestas
Hull Wind Farm,Hull,1,42.2727,-70.8597,Vestas
Hull Wind II Wind Farm,Hull II,1,42.2727,-70.8597,Vestas
Hull Wind III Wind Farm,Hull III,4,42.306172,-70.845881,Undetermined
Humboldt Industrial Park Wind Farm,Humboldt Industrial Park,2,40.9507,-75.9735,
Hyannis Country Garden Wind Farm,Hyannis Country Garden,1,41.6356667,-70.2994661,DES
Hydrogen Pilot Project Wind Farm,Hydrogen Pilot Project,2,43.5141,-116.088,
Hywind 2 Demonstration,Hywind 2 Demonstration,4,43.524,-69.534,
IBEW Local 103 Wind Farm,IBEW Local 103,1,42.3071,-71.0331,Fuhrl?nder
IDGWP Wind Farm,IDGWP,3,43.0699663,-94.233019,Zond
Illinois Rural Electric Cooperative Wind Farm,Illinois Rural Electric Cooperative,1,39.6189,-90.9627,Vestas
Illinois Sustainable Technologies Center,Illinois Sustainable Technologies Center,1,40.090615,-88.242006,Clipper
Inadale (Roscoe IV) Wind Farm,Inadale (Roscoe IV),197,32.346675,-100.379717,Mitsubishi
Indian Mesa Wind Farm I,Indian Mesa Wind Farm,125,30.920167,-102.116811,Vestas
Indian Mesa Wind Farm II,Indian Mesa Wind Farm,1,36.278,-101.345,Vestas
International Turbine Research Wind Farm,International Turbine Research,167,37.0445,-121.175,Various
Intrepid Expansion Wind Farm,Intrepid Expansion,15,42.483311,-95.308807,Mitsubishi
Intrepid Wind Farm,Intrepid,107,42.537923,-95.289502,GE Wind
Iowa Distributed Wind Generation Project,Iowa Distributed Wind Generation Project,3,43.0691,-94.2255,Zond 750
Iowa Lakes Community College Wind Farm,Iowa Lakes Community College,1,43.397912,-94.81768,Vestas
Iowa Lakes Lakota Wind Farm,Iowa Lakes Lakota Wind,7,43.377021,-94.139493,GE Energy
Iowa Lakes Superior Wind Farm,Iowa Lakes Superior Wind,7,43.447756,-94.980719,GE Energy
JD Wind 1 Wind Farm,JD Wind 1,8,36.398384,-101.376997,Suzlon Energy Company
JD Wind 10 Wind Farm,JD Wind 10,8,35.808304,-101.994807,Suzlon Energy Company
JD Wind 11 Wind Farm,JD Wind 11,8,35.808304,-101.994807,Suzlon Energy Company
JD Wind 2 Wind Farm,JD Wind 2,8,36.398384,-101.376997,Suzlon Energy Company
JD Wind 3 Wind Farm,JD Wind 3,8,36.398384,-101.376997,Suzlon Energy Company
JD Wind 4 Wind Farm,JD Wind 4,38,36.398384,-101.376997,Suzlon Energy Company
JD Wind 5 Wind Farm,JD Wind 5,8,36.466801,-101.813446,Suzlon Energy Company
JD Wind 6 Wind Farm,JD Wind 6,8,36.466801,-101.813446,Suzlon Energy Company
JD Wind 7 Wind Farm,JD Wind 7,8,35.808304,-101.994807,Suzlon Energy Company
JD Wind 8 Wind Farm,JD Wind 8,8,35.808304,-101.994807,Suzlon Energy Company
JD Wind 9 Wind Farm,JD Wind 9,8,35.808304,-101.994807,Suzlon Energy Company
JJN Wind Farm,JJN Wind Farm,1,44.0039,-96.0526,Vestas
Jeffers Wind Farm,Jeffers,20,44.065088,-95.255935,Clipper
Jefferson Offshore,Jefferson Offshore,,29.568,-93.957,
Jersey Atlantic Wind Farm,Jersey Atlantic Wind Farm,5,39.383892,-74.44862,GE Energy
Jiminy Peak Ski Resort Wind Farm,Jiminy Peak Ski Resort,1,42.5554,-73.2898,GE Energy
Judith Gap Wind Farm,Judith Gap,90,46.6005,-109.749,GE Energy
Juniper Canyon,Juniper Canyon,128,45.730733,-120.76807,Mitsubishi
KTFC Midwest Bible Radio Wind Farm,KTFC Midwest Bible Radio,1,42.4837,-96.3068,
Kaheawa Wind Farm,Kaheawa,20,20.2564,-155.850409,GE Energy
Kahuku Wind,Kahuku Wind,12,21.684095,-157.982372,Clipper
Kama'oa Wind Farm,Kama'oa Wind Farm,37,19.685156,-155.5511,Mitsubishi
Karen Avenue Wind Farm,Karen Avenue Windfarm,6,33.9095,-116.734,Vestas
Karen Avenue Wind Farm II (San Gorgonio Farms),Karen Avenue Windfarm II (San Gorgonio Farms),3,33.9095,-116.734,GE Energy
Kas Farms Wind Farm,Kas Farms,2,43.9948,-96.3175,NEG Micon
Keenan II Wind Facility,Keenan II Wind Facility,66,36.387336,-99.450502,Siemens
Kenetech Wind Farm,Kenetech,101,33.9095,-116.734,Kenetech
Kenetech/Wintech Wind Farm,Kenetech/Wintech,147,33.9095,-116.734,Carter; Micon; Nordtank
Kibby Mountain II,Kibby Mountain II,22,45.354154,-70.65412,Vestas
"Kibby Mountain, Phase I Wind Farm","Kibby Mountain, Phase I",22,43.973144,-71.030844,Vestas
Kimball Wind Project Wind Farm,Kimball Wind Project,7,41.2724,-103.695,NEG Micon
King Mountain Wind Ranch I,King Mountain Wind Ranch,214,31.280873,-102.195861,Bonus
King Mountain Wind Ranch II,King Mountain Wind Ranch,1,31.238758,-102.133763,Vestas
Kit Carson Wind Project,Kit Carson Wind Project,34,39.368093,-102.323284,GE Energy
Kittitas Valley Wind Power Project,Kittitas Valley Wind Power Project,48,47.139001,-120.670481,Suzlon Energy Company
Klondike II Wind Farm,Klondike II,50,45.592556,-120.590322,GE Energy
Klondike III I Wind Farm,Klondike III,80,45.572921,-120.551527,GE Energy
Klondike III II Wind Farm,Klondike III,44,45.572921,-120.551527,Siemens
Klondike III III Wind Farm,Klondike III,1,45.572921,-120.551527,Mitsubishi
Klondike IIIA Wind Farm,Klondike IIIA,51,45.572921,-120.551527,GE Energy
Klondike Wind Farm,Klondike,16,45.580605,-120.601781,GE Energy
Kodiak Island Wind Farm,Kodiak Island Wind Farm,3,57.782952,-152.462182,GE Energy
Kotzebue Wind Project I,Kotzebue Wind Project,1,66.836485,-162.556955,Northern Power Systems Northwind
Kotzebue Wind Project II,Kotzebue Wind Project,3,66.83912,-162.562816,Integrity Wind Systems
Kotzebue Wind Project III,Kotzebue Wind Project,1,66.83716,-162.556955,Vestas
Kotzebue Wind Project Phase I,Kotzebue Wind Project Phase I,3,66.83907,-162.551315,Atlantic Orient Co.
Kotzebue Wind Project Phase II & III,Kotzebue Wind Project Phase II & III,7,66.839104,-162.556894,Atlantic Orient Co.
Kotzebue Wind Project Phases II & III,Kotzebue Wind Project Phases II & III,7,66.8983333,-162.5966666,AOC
Kumeyaay Wind Power Project,Kumeyaay Wind Power Project,25,32.710183,-116.333224,Gamesa
Lac qui Parle Valley School Wind Farm,Lac qui Parle Valley School,1,45.073288,-96.056312,Micon
Lake Benton I Wind Farm,Lake Benton I,142,44.230507,-96.248327,GE Energy
Lake Benton II Wind Farm,Lake Benton II,138,44.226606,-96.225049,Zond
Lake Erie Alternative Power,Lake Erie Alternative Power,1400,42.265,-80.642,Siemens
Lake Palmdale Wind Farm,Lake Palmdale,1,34.555932,-118.118307,Vestas
Lakefield,Lakefield,137,43.6887888,-95.1348456,GE Energy
Laker Elementary School Wind Farm,Laker Elementary School,3,43.817384,-83.228218,Nordtank
Lakeshore Technical College Wind Farm,Lakeshore Technical College,1,43.924176,-87.75139,EMS
Lakeview Ridge Wind Farm,Lakeview Ridge,1,44.422756,-96.432545,NEG Micon
Lakota Ridge Wind Farm,Lakota Ridge,15,44.422756,-96.432545,NEG Micon
Lalamilo Wells II Wind Farm,Lalamilo Wells II,20,19.9875,-155.765556,Jacobs
Lalamilo Wells Wind Farm,Lalamilo Wells,26,19.9875,-155.765556,Jacobs
Lamar Wind Energy Project I,Lamar Wind Energy Project,3,38.033395,-102.538862,GE Energy
Lamar Wind Energy Project II,Lamar Wind Energy Project,1,38.032361,-102.529578,GE Energy
Lamar Wind Energy Project III,Lamar Wind Energy Project,1,38.0326,-102.532,GE Energy
Langdon II - FPL Wind Farm,Langdon II - FPL,27,48.687255,-98.309298,GE Energy
Langdon II - Otter Tail Wind Farm,Langdon II - Otter Tail,27,48.687255,-98.309298,GE Energy
Langdon Wind Project (4Q07),Langdon Wind Project (4Q07),79,48.682135,-98.318582,GE Energy
Langford Wind Farm,Langford Wind Farm,100,31.157338,-100.609624,GE Energy
Laredo Ridge Wind Farm,Laredo Ridge Wind Farm,54,41.869644,-98.03205,GE Energy
Leaning Juniper 2A,Leaning Juniper 2A,43,45.646628,-120.24145,Suzlon Energy Company
Leaning Juniper 2B,Leaning Juniper 2B,74,45.646628,-120.24145,GE Energy
Leaning Juniper Wind Farm,Leaning Juniper,67,45.67598,-120.242715,GE Energy
Lee-Dekalb Wind Energy Center,Lee-Dekalb Wind Energy Center,145,41.710783,-89.041507,GE Energy
Lempster Wind Farm,Lempster Wind Farm,12,43.233333,-72.15,Gamesa
Lenox Municipal Utilities Wind Farm,Lenox Municipal Utilities,1,40.880592,-94.559029,NEG Micon
Leon Sneve Wind Project Wind Farm,Leon Sneve Wind Project,1,43.762,-95.8274,NEG Micon
Lewandoski Wind Farm,Lewandoski Wind Farm,2,43.612631,-116.211076,
Liberty Turbine Test Wind Farm,Liberty Turbine Test,1,41.96251,-106.415918,Clipper Windpower
Lincoln County Wind Farms,Lincoln County Wind Farms,1,44.4039,-96.2646,NEG Micon
Lincoln Wind Energy Facility I,Lincoln Wind Energy Facility,1,40.7649,-96.7265,Vestas
Lincoln Wind Energy Facility II,Lincoln Wind Energy Facility,1,40.7649,-96.7265,Vestas
Linden Ranch,Linden Ranch,25,45.757,-120.795998,REPower
Little Pringle I,Little Pringle I,5,35.803356,-101.43352,DeWind
Little Pringle II,Little Pringle II,5,35.803356,-101.43352,DeWind
Llano Estacado Wind Ranch at Texico,Llano Estacado Wind Ranch at Texico,1,34.6283,-103.387,Vestas
"Llano Estacado Wind Ranch at Texico, phase II","Llano Estacado Wind Ranch at Texico, phase II",2,34.6283,-103.387,Vestas
Llano Estacado Wind Ranch at White Deer,Llano Estacado Wind Ranch at White Deer,80,35.4613,-101.238,Mitsubishi
Locust Ridge II Wind Farm,Locust Ridge II,51,40.7067,-76.2238,Gamesa
Locust Ridge Wind Farm,Locust Ridge Wind Farm,13,40.821363,-76.148216,Gamesa
Loess Hills Wind Energy Center,Loess Hills Wind Energy Center,4,40.410864,-95.514861,Suzlon Energy Company
Lone Star I (4Q07) Wind Farm,Lone Star I (4Q07),9,32.594885,-99.506464,Gamesa
Lone Star I (Q2) Wind Farm,Lone Star I (Q2),36,32.594885,-99.506464,Gamesa
Lone Star I (Q3) Wind Farm,Lone Star I (Q3),55,32.594885,-99.506464,Gamesa
Lone Star II (1Q08) Wind Farm,Lone Star II (1Q08),52,32.594885,-99.506464,Gamesa
Lone Star II (2Q08) Wind Farm,Lone Star II (2Q08),26,32.594885,-99.506464,Gamesa
Lone Star II (4Q07) Wind Farm,Lone Star II (4Q07),22,32.594885,-99.506464,Gamesa
Long Island New York City Offshore Wind Farm,Long Island New York City Offshore Wind Farm,,40.41,-73.72,Undetermined
Lookout Wind Farm,Lookout,18,39.850807,-78.936954,Suzlon Energy Company
Loranger Power Generation Wind Farm,Loranger Power Generation,3,44.501183,-71.231588,
Lost Creek Wind Farm,Lost Creek Wind Farm,100,39.98080324,-94.55009937,GE Energy
Lost Lakes Wind Farm,Lost Lakes Wind Farm,61,43.32401,-95.264354,Vestas
Lower Snake River I,Lower Snake River I,149,46.375632,-117.703257,Siemens
Luverne Wind Farm (North Field),Luverne Wind Farm (North Field),113,47.336147,-97.943716,GE Energy
MWRA Deer Island Wind,MWRA Deer Island Wind,2,42.346751,-70.957006,
Macho Springs Wind Farm,Macho Springs Wind Farm,28,32.573639,-107.456399,Vestas
Mackinaw City Wind Farm,Mackinaw City,2,45.738212,-84.738024,NEG Micon
Madison Wind Power Project,Madison Wind Power Project,7,42.91455,-75.569851,Vestas
Maiden Winds,Maiden Winds,5,44.000815,-96.340445,Vestas
Mainden Winds Wind Farm,Mainden Winds,5,43.9985815,-96.3128117,Vestas
Majestic Wind Farm,Majestic Wind Farm,53,35.46902,-101.239382,GE Energy
Manchester,Manchester,1,42.9911,-71.463,Atlantic Orient Co.
Maple Ridge 1a Wind Farm,Maple Ridge 1a,20,43.775565,-75.584614,Vestas
Maple Ridge Wind Farm (2005 portion),Maple Ridge Wind Farm (2005 portion),83,43.775565,-75.584614,Vestas
Maple Ridge Wind Farm (2006 portion),Maple Ridge Wind Farm (2006 portion),37,43.775565,-75.584614,Vestas
"Maple Ridge Wind Farm, phase II","Maple Ridge Wind Farm, phase II",55,43.775565,-75.584614,Vestas
Marengo II Wind Farm,Marengo II,39,46.448343,-117.851043,Vestas
Marengo Wind Farm,Marengo Wind Farm,78,46.448343,-117.851043,Vestas
Mark Richey Woodworking Wind Farm,Mark Richey Woodworking Wind Farm,1,42.80211,-70.880604,
Mars Hill (2006) Wind Farm,Mars Hill (2006),6,46.551388,-67.808333,GE Energy
Mars Hill (2007) Wind Farm,Mars Hill (2007),22,46.551388,-67.808333,GE Energy
Marshall Wind Farm,Marshall Wind Farm,9,44.331173,-95.816331,Suzlon Energy Company
Marshalltown Wind Farm,Marshalltown,1,42.0518,-92.9079,Micon
Martinsdale Colony North,Martinsdale Colony North,11,46.52,-110.28,Windmatic
Martinsdale Colony South,Martinsdale Colony South,8,46.49,-110.28,Mitsubishi
Massachusetts Maritime Academy Wind Farm,Massachusetts Maritime Academy,1,41.741349,-70.62382,Vestas
Massachusetts Military Reservation,Massachusetts Military Reservation,1,41.690386,-70.550108,Fuhrlander
McAdoo Wind Farm,McAdoo Wind Farm,100,33.747757,-100.996846,GE Energy
McFadden Ridge Wind Farm,McFadden Ridge,19,41.718626,-106.107001,GE Energy
McKinney Wal-Mart Wind Farm,McKinney Wal-Mart,1,33.220625,-96.630571,Bergey Windpower
McNeilus Wind Farm I,McNeilus,10,43.673251,-92.665436,NEG Micon
McNeilus Wind Farm II,McNeilus,1,43.673251,-92.665436,NEG Micon
McNeilus Wind Farm III,McNeilus,6,43.673251,-92.665436,NEG Micon
McNeilus Wind Farm IV,McNeilus,6,43.673251,-92.665436,NEG Micon
Meadow Lake II,Meadow Lake II,61,40.601111,-86.864167,Acciona
Meadow Lake II (3Q10),Meadow Lake II (3Q10),5,40.601111,-86.864167,Acciona
Meadow Lake III,Meadow Lake III,69,40.601111,-86.864167,GE Energy
Meadow Lake IV,Meadow Lake IV,47,40.601111,-86.864167,Suzlon Energy Company
Meadow Lake Wind Farm,Meadow Lake Wind Farm,121,40.601111,-86.864167,Vestas
Medicine Bow Wind Farm I,Medicine Bow,5,41.927554,-106.371968,Vestas
Medicine Bow Wind Farm II,Medicine Bow,2,41.927554,-106.371968,Vestas
Medicine Bow Wind Farm III,Medicine Bow,1,41.927554,-106.371968,Nordtank
Medicine Bow Wind Farm IV,Medicine Bow,2,41.927554,-106.371968,Vestas
Mendota Hills Wind Farm,Mendota Hills,63,41.738291,-89.044032,Gamesa
Meridian Trust Wind Farm I,Meridian Trust,1,33.9095,-116.734,Bonus
Meridian Trust Wind Farm II,Meridian Trust,74,33.9095,-116.734,Kenetech
Meridian Way II Wind Farm,Meridian Way II,32,39.43274,-97.545217,Vestas
Meridian Way Wind Farm,Meridian Way,35,39.43274,-97.545217,Vestas
Mesalands Community College Wind Farm,Mesalands Community College,1,35.170978,-103.736088,GE Energy
"Metro Wind, LLC Wind Farm","Metro Wind, LLC",1,45.379527,-93.634011,Vestas
Meyersdale Wind Farm,Meyersdale,20,39.786246,-79.004659,NEG Micon
Michigan Offshore Wind Pilot Project,Michigan Offshore Wind Pilot Project,1,43.231,-86.307,
Michigan Wind I Wind Farm,Michigan Wind I,46,43.7099,-82.9388,GE Energy
Mid-Atlantic Wind Park,Mid-Atlantic Wind Park,150,38.633333,-74.775,Vestas (Anticipated)
Milford Wind Corridor Phase I (GE Energy),Milford Wind Corridor Phase I (GE Energy),39,38.52227,-112.935262,GE Energy
Milford Wind Corridor Phase II,Milford Wind Corridor Phase II,68,38.645608,-112.878027,GE Energy
"Milford Wind Corridor, Phase I (Clipper) Wind Farm","Milford Wind Corridor, Phase I (Clipper)",58,38.52227,-112.935262,Clipper
"Milford Wind Corridor, Phase I (GE Energy) Wind Farm","Milford Wind Corridor, Phase I (GE Energy)",39,39.3209801,-111.0937311,GE Energy
Mill Run Wind Power Project,Mill Run Wind Power Project,10,39.921026,-79.388666,GE Energy
Milner Dam Wind Park,Milner Dam Wind Park,13,42.495962,-114.021106,GE Energy
MinWind I & II Wind Farm,MinWind I & II,4,43.6748,-96.2622,NEG Micon
MinWind III-IX Wind Farm,MinWind III-IX,7,43.6505,-96.3892,NEG Micon
Minco II Wind Energy Center,Minco II Wind Energy Center,63,35.346236,-98.00364,GE Energy
Minco Wind Energy Center,Minco Wind Energy Center,62,35.294204,-97.926081,
Minn-Dakota Wind Farm I,Minn-Dakota Wind Farm,36,44.385567,-96.436572,GE Energy
Minn-Dakota Wind Farm II,Minn-Dakota Wind Farm,64,44.385567,-96.436572,GE Energy
Minnesota Wind Share Wind Farm,Minnesota Wind Share,3,43.996,-95.9532,Suzlon Energy Company
Minnkota Power Cooperative Wind Turbine (Petersbu,Minnkota Power Cooperative Wind Turbine (Petersbu,1,48.008793,-97.930931,NEG Micon
Minnkota Power Cooperative Wind Turbine (Valley C,Minnkota Power Cooperative Wind Turbine (Valley C,1,46.918681,-97.891581,NEG Micon
Minot Wind 2,Minot Wind 2,3,48.02516,-101.290905,GE Energy
Missouri River Energy Services (MRES) Wind Farm (2002),Missouri River Energy Services (MRES),4,43.6659,-95.7493,NEG Micon
Missouri River Energy Services (MRES) Wind Farm (2003),Missouri River Energy Services (MRES),2,43.6659,-95.7493,NEG Micon
Moe Wind Farm,Moe Wind Farm,6,46.32,-110.09,Vestas
Mogul Energy Wind Farm,Mogul Energy,8,35.07665,-118.25529,Mitsubishi
Mojave 16-17-18 Wind Farm I,Mojave 16/17/18,267,35.07665,-118.25529,Mitsubishi
Mojave 16-17-18 Wind Farm II,Mojave 16/17/18,30,35.07665,-118.25529,Mitsubishi
Mojave 90 (3 & 5) Wind Farm,Mojave 90 (3 & 5),184,35.07665,-118.25529,Mitsubishi
Mojave 90 (4) Wind Farm,Mojave 90 (4),116,35.07665,-118.25529,Mitsubishi
Mojave/Morowind Wind Farm,Mojave/Morowind,59,35.07665,-118.25529,Mitsubishi
Monhegan Island,Monhegan Island,1,43.713,-69.317,
Montezuma Wind Project,Montezuma Wind Project,16,38.107973,-121.853156,Siemens
Montfort Wind Farm,Montfort Wind Farm,20,42.96266,-90.379987,GE Energy
Moorhead Wind Farm I,Moorhead,1,46.895158,-96.73081,NEG Micon
Moorhead Wind Farm II,Moorhead,1,46.895158,-96.73081,NEG Micon
Moraine II Wind Farm,Moraine II,33,44.012466,-96.114764,GE Energy
Moraine Wind Power Project,Moraine Wind Power Project,34,43.993574,-96.047301,GE Energy
"Moulton, Chandler Hills Wind Farm Phase II","Moulton, Chandler Hills Wind Farm Phase II",3,43.9189,-95.9557,Vestas
Mount St. Mary's Abbey,Mount St. Mary's Abbey,1,42.033096,-71.393711,
Mount Wachusetts Wind Farm,Mount Wachusetts Wind Farm,2,42.588458,-71.98387,
Mountain Home Wind Farm,Mountain Home,20,43.268356,-116.167939,Suzlon Energy Company
Mountain View Grand,Mountain View Grand,1,44.397987,-71.590306,Northern Power Systems
Mountain View Power Partners I Wind Farm,Mountain View Power Partners I,74,33.9095,-116.734,Mitsubishi
Mountain View Power Partners II Wind Farm,Mountain View Power Partners II,37,33.9095,-116.734,Mitsubishi
Mountain View Power Partners III Wind Farm,Mountain View Power Partners III,34,33.9095,-116.734,Vestas
Mountain Wind I Wind Farm,Mountain Wind I,29,41.275629,-110.539488,Suzlon Energy Company
Mountain Wind II Wind Farm,Mountain Wind II,38,41.275629,-110.539488,Suzlon Energy Company
Mountaineer Wind Energy Center,Mountaineer Wind Energy Center,44,39.163081,-79.554516,NEG Micon
Mower County Wind Energy Center,Mower County Wind Energy Center,43,43.695822,-92.649608,Siemens
Munnsville Wind Farm,Munnsville,23,42.948685,-75.563024,GE Energy
Murray Various Wind Farm,Murray Various,8,43.982665,-96.01146,Suzlon Energy Company
Mustang Island Offshore Wind Farm,Mustang Island Offshore Wind Farm,200,27.66,-97.01,
NREL Research Wind Farm I,NREL Research,1,39.907848,-105.223407,GE Energy
NREL Research Wind Farm II,NREL Research,1,39.90849,-105.223278,Siemens
Nature's Classroom Wind Turbine,Nature's Classroom Wind Turbine,1,42.113685,-72.008475,Northern Power Systems
NedPower Mount Storm II Wind Farm,NedPower Mount Storm II,50,39.251507,-79.178989,Gamesa
NedPower Mount Storm Wind Farm,NedPower Mount Storm,82,39.251507,-79.178989,Gamesa
Neppel Wind Power Project,Neppel Wind Power Project,1,43.402001,-94.578989,Vestas
Nevada High School Wind Farm,Nevada High School,2,42.020791,-93.435997,WindWorld
New England Tech Wind Turbine,New England Tech Wind Turbine,1,41.732743,-71.451466,
New Mexico Wind Energy Center,New Mexico Wind Energy Center,136,34.548414,-104.084157,GE Energy
Newport Nearshore Windpark,Newport Nearshore Windpark,106,39.2,-75.24,Siemens
Nine Canyon III Wind Farm,Nine Canyon III,14,46.286065,-119.425532,Siemens
Nine Canyon Wind Farm,Nine Canyon Wind Farm,37,46.286065,-119.425532,Bonus
"Nine Canyon Wind Farm, Phase II","Nine Canyon Wind Farm, Phase II",12,46.286065,-119.425532,Bonus
Noble Altona Wind Park,Noble Altona Wind Park,65,44.831383,-73.664024,GE Energy
Noble Bellmont Wind Farm,Noble Bellmont,14,44.766569,-74.094292,GE Energy
Noble Bliss Windpark,Noble Bliss Windpark,67,42.571308,-78.243045,GE Energy
Noble Chateaugay Wind Farm,Noble Chateaugay,71,44.925016,-73.999879,GE Energy
Noble Clinton Windpark,Noble Clinton Windpark,67,44.828665,-73.668909,GE Energy
Noble Ellenburg Windpark,Noble Ellenburg Windpark,54,44.923427,-73.99631,
Noble Wethersfield Wind Farm,Noble Wethersfield,84,42.684775,-78.245856,GE Energy
Nobles Wind Farm,Nobles,1,43.703317,-95.457977,Suzlon Energy Company
Nobles Wind Farm II,Nobles Wind Farm II,134,43.682956,-95.728425,GE Energy
Nome Wind Farm,Nome,18,64.5011111,-165.4063889,Entegrity
North Allegheny Wind Farm,North Allegheny,35,40.39355,-78.549095,Gamesa
North Dakota Wind I Wind Farm,North Dakota Wind I,27,46.319182,-98.890818,GE Energy
North Dakota Wind II Wind Farm,North Dakota Wind II,14,46.292787,-98.881638,GE Energy
North Shaokatan Wind Farm,North Shaokatan Wind Farm,18,44.393089,-96.425042,Vestas
Northern Colorado Wind Energy Center (GE),Northern Colorado Wind Energy Center (GE),15,40.974539,-103.025336,GE Energy
Northern Colorado Wind Energy Center (Siemens),Northern Colorado Wind Energy Center (Siemens),66,40.974539,-103.025336,Siemens
Notrees 1A (Vestas) Wind Farm,Notrees 1A (Vestas),55,31.925296,-102.722819,Vestas
Notrees 1B (GE Energy) Wind Farm,Notrees 1B (GE Energy),40,31.9685988,-99.9018131,GE Energy
Notrees 1C (Vestas) Wind Farm,Notrees 1C (Vestas),1,31.9685988,-99.9018131,Vestas
Notus Falmouth Technology Park,Notus Falmouth Technology Park,1,41.605949,-70.620722,Vestas
OU Spirit Wind Farm,OU Spirit Wind Farm,44,36.245403,-99.433011,Siemens
Oak Creek - Phase 2A,Oak Creek - Phase 2A,2,35.07665,-118.25529,NEG Micon
Oak Creek Energy Systems Wind Farm I,Oak Creek Energy Systems,36,35.07665,-118.25529,Micon
Oak Creek Energy Systems Wind Farm II,Oak Creek Energy Systems,1,35.07665,-118.25529,NEG Micon
Oak Creek Energy Systems Wind Farm III,Oak Creek Energy Systems,1,35.07665,-118.25529,NEG Micon
Oak Creek Phase I Wind Farm,Oak Creek Phase I,7,35.07665,-118.25529,NEG Micon
Oak Creek Wind Power Phase 2 Wind Farm,Oak Creek Wind Power Phase 2,33,35.07665,-118.25529,NEG Micon
Oasis Power Partners Wind Farm,Oasis Power Partners,60,35.07665,-118.25529,Mitsubishi
Octotillo Wind Farm,Octotillo Wind Farm,28,32.209085,-101.413704,Suzlon Energy Company
Odin Wind Farm,Odin,10,43.808589,-94.824893,Suzlon Energy Company
Oklahoma Wind Energy Center - A,Oklahoma Wind Energy Center - A,34,36.6051,-99.327829,GE Energy
Oklahoma Wind Energy Center - B,Oklahoma Wind Energy Center - B,34,36.58642,-99.310015,GE Energy
Oliver II Wind Farm,Oliver II,32,47.180446,-101.225116,GE Energy
Oliver Wind Energy Center,Oliver Wind Energy Center,22,47.180446,-101.225116,Siemens
Olsen Wind Farm,Olsen Wind Farm,2,43.91065,-96.369853,NEG Micon
Omaha Wind Project,Omaha Wind Project,1,41.2566,-95.9278,Vestas
Oregon Trail Wind Park,Oregon Trail Wind Park,9,42.927683,-114.919252,GE Energy
Osage Municipal Utilities Wind,Osage Municipal Utilities Wind,1,43.298363,-92.84096,GE Energy
Other World Computing,Other World Computing,0.5,42.281129,-88.417338,Vestas
PaTu Wind Farm,PaTu Wind Farm,6,45.603734,-120.618621,GE Energy
Pacific Crest Wind Farm,Pacific Crest,71,35.07665,-118.25529,Vestas
Pacific West I Wind Farm,Pacific West I,3,33.9095,-116.734,NEG Micon
Painted Hills B&C Wind Farm I,Painted Hills B&C,170,33.9095,-116.734,Vestas
Painted Hills B&C Wind Farm II,Painted Hills B&C,61,33.9095,-116.734,Vestas
Pakini Nui Wind Farm,Pakini Nui,14,18.9923,-155.668,GE Energy
Palmetto Wind Research Project,Palmetto Wind Research Project,,33.534,-78.59,
Palouse Wind,Palouse Wind,,47.1572222,-117.3325,
Panther Creek,Panther Creek,,39.607275,-90.85556,Suzlon Energy Company
Panther Creek I Wind Farm,Panther Creek I,95,32.201592,-101.406391,GE Energy
Panther Creek II Wind Farm,Panther Creek II,77,32.201592,-101.406391,GE Energy
Panther Creek III Wind Farm,Panther Creek III,133,31.9685988,-99.9018131,GE Energy
Papalote Creek II,Papalote Creek II,87,28.254569,-97.40015,Siemens
Papalote Creek Wind Farm,Papalote Creek,109,27.925458,-97.394686,Vestas
Patriot Wind Farm,Patriot,3,44.526722,-69.293536,GE Energy
Patterson Pass Wind Farm,Patterson Pass,336,37.7347,-121.652,Nordtank
Pavilion Energy Resources,Pavilion Energy Resources,,,,
Paynes Ferry Wind Farm,Paynes Ferry Wind Farm,14,42.743987,-114.929464,GE Energy
Pebble Springs Wind Farm,Pebble Springs,47,45.712306,-120.184242,Suzlon Energy Company
Peetz Table Wind Energy Center (3Q07),Peetz Table Wind Energy Center (3Q07),176,40.98149,-102.973891,GE Energy
Peetz Table Wind Energy Center (4Q07),Peetz Table Wind Energy Center (4Q07),91,40.98149,-102.973891,GE Energy
Peetz Table Wind Farm,Peetz Table Wind Farm,33,40.954,-103.143,NEG Micon
Penascal II,Penascal II,84,27.003108,-97.584014,Mitsubishi
Penescal Wind Farm,Penescal,84,27.003108,-97.584014,Mitsubishi
Pigeon Creek,Pigeon Creek,1,39.83328984,-91.19227409,Emergya Wind Technologies
Pilgrim Statioin,Pilgrim Statioin,7,42.741336,-114.865865,GE Energy
Pine Tree Extension Wind Farm,Pine Tree Extension,10,35.076651,-118.255291,GE Energy
Pine Tree Wind Farm,Pine Tree Wind Farm,80,35.07665,-118.25529,GE Energy
Pinnacle Wind Farm,Pinnacle Wind Farm,23,39.013141,-79.620212,
Pioneer Prairie I (3Q08) Wind Farm,Pioneer Prairie I (3Q08),4,43.450321,-92.551074,Vestas
Pioneer Prairie I (4Q08) Wind Farm,Pioneer Prairie I (4Q08),116,43.450321,-92.551074,Vestas
Pioneer Prairie II (09) Wind Farm,Pioneer Prairie II,62,43.450321,-92.551074,Vestas
Pioneer Prairie II Wind Farm,Pioneer Prairie II,19,43.450321,-92.551074,Vestas
Pipestone School District Wind Farm,Pipestone School District,1,44.000614,-96.340445,NEG Micon
Pomeroy II (08) Wind Farm,Pomeroy II (08),1,42.570484,-94.702506,GE Energy
Pomeroy II (4Q07) Wind Farm,Pomeroy II (4Q07),49,42.570484,-94.702506,GE Energy
Pomeroy III Wind Farm,Pomeroy III,39,42.570484,-94.702506,GE Energy
Pomeroy Wind Farm,Pomeroy,82,42.570484,-94.702506,GE Energy
"Ponnequin, phase I and II (PSCo) Wind Farm","Ponnequin, phase I and II (PSCo)",22,40.998405,-104.811466,NEG Micon
"Ponnequin, phase III (EUI) Wind Farm","Ponnequin, phase III (EUI)",6,40.998405,-104.811466,NEG Micon
"Ponnequin, phase III (PSCo) Wind Farm",Ponnequin- phase III,15,40.998405,-104.811466,Vestas
Ponnequin-phase III,Ponnequin-phase III,1,40.998405,-104.811466,NEG Micon
Portage,Portage,35,40.391911,-78.672747,Gamesa
Portsmouth Abbey School Wind Turbine Wind Farm,Portsmouth Abbey School Wind Turbine,1,41.599032,-71.268688,Vestas
Portsmouth Wind Turbine,Portsmouth Wind Turbine,1,41.614216,-71.25165,AAER
Prairie Star (07) Wind Farm,Prairie Star (07),60,43.685955,-92.626777,Vestas
Prairie Star (08) Wind Farm,Prairie Star (08),1,43.685955,-92.626777,Vestas
Prairie Winds ND I,Prairie Winds ND I,77,48.022462,-101.292365,GE Energy
Prairie Winds Wind Farm,Prairie Winds,2,48.022927,-101.291435,Nordex
Presque Isle Wind Project,Presque Isle Wind Project,1,46.669179,-68.01851,
Providence Heights Wind Farm,Providence Heights,36,41.264075,-89.580853,Gamesa
Pueblo Towers,Pueblo Towers,1,38.205834,-104.588141,Vestas
Pyron (Roscoe III) Wind Farm,Pyron (Roscoe III),166,32.354161,-100.344825,GE Energy
Radial Wind Farm,Radial Wind Farm,390,43.039,-87.536,
Rail Splitter Wind Farm,Rail Splitter Wind Farm,67,40.309398,-89.396195,GE Energy
Rattlesnake Road Wind Farm,Rattlesnake Road,49,45.700461,-120.280581,Suzlon Energy Company
Red Canyon Wind Farm,Red Canyon Wind Farm,56,32.95326011,-101.215539,GE Energy
Red Hills Wind Farm,Red Hills Wind Farm,82,35.531944,-99.403889,Acciona
Red Mesa,Red Mesa,64,35.197003,-107.372611,GE Energy
Refurbished Projects Wind Farm,Refurbished Projects,22,46.436328,-109.834492,Refurbished Nordtanks
Rhode Island Offshore Wind Farm,Rhode Island Offshore Wind Farm,130,40.96,-71.44,Undetermined
Richardton Abbey Wind Farm,Richardton Abbey,1,46.8838956,-102.3157292,Silver Eagle
Ridgetop Energy Wind Farm I,Ridgetop Energy,28,35.07665,-118.25529,Vestas
Ridgetop Energy Wind Farm II,Ridgetop Energy,232,35.07665,-118.25529,Nordtank
Ridgetop Energy Wind Farm III,Ridgetop Energy,12,35.1317,-118.451,Micon
Ridgetop Energy Wind Farm IV,Ridgetop Energy,1,35.1317,-118.451,Micon
Ridgewind Wind Farm,Ridgewind,11,44.011752,-96.114664,Siemens
Rim Rock Wind Farm,Rim Rock Wind Farm,,48.779564,-112.061291,Undetermined
Rio Grande North,Rio Grande North,160,26.364,-97.078,
Rio Grande South,Rio Grande South,160,26.189,-97.053,
Rock River Wind Farm,Rock River Wind Farm,50,41.6996,-107.003,Mitsubishi
Rockland Wind,Rockland Wind,44,42.679915,-112.914837,Vestas
Rolling Hills (IA),Rolling Hills (IA),193,41.230443,-94.75459,Siemens
Rolling Hills (WY),Rolling Hills (WY),66,43.08080003,-105.8497953,GE Energy
Rollins Wind,Rollins Wind,40,45.412708,-68.370867,GE Energy
Roscoe Wind Farm,Roscoe Wind Farm,209,32.237147,-100.121427,Mitsubishi
Rosebud Sioux Wind Energy Project,Rosebud Sioux Wind Energy Project,1,43.002706,-100.578529,NEG Micon
Rosiere Wind Farm,Rosiere Wind Farm,17,44.669395,-87.627218,Vestas
Roth Rock Wind Power Project,Roth Rock Wind Power Project,20,39.30105,-79.458032,Nordex
Rugby Wind Farm,Rugby,71,48.511277,-99.889169,Suzlon Energy Company
Ruthton Wind Farm,Ruthton Wind Farm,24,44.4039,-96.2646,Vestas
SMUD Wind Farm,SMUD,1,38.2836,-122.006,Vestas
Sacred Heart Monastery,Sacred Heart Monastery,2,46.896443,-102.346536,Silver Eagle
Saint Paul Island Wind Farm,Saint Paul Island,1,57.1761,-170.269,Vestas
San Clemente Island Wind Farm,San Clemente Island,3,32.986095,-118.552138,NEG Micon
San Gorgonio Farms (repower) Wind Farm,San Gorgonio Farms (repower),10,33.9095,-116.734,Vestas
San Gorgonio Farms Wind Farm I,San Gorgonio Farms,4,33.9095,-116.734,Vestas
San Gorgonio Farms Wind Farm II,San Gorgonio Farms,49,33.9095,-116.734,Bonus- Micon
San Gorgonio Farms Wind Farm III,San Gorgonio Farms,222,33.9095,-116.734,Bonus; DWT; Micon
San Jacinto Wind Farm,San Jacinto,50,33.9095,-116.734,Vanguard Windmatic
San Juan Mesa Wind Farm,San Juan Mesa Wind Farm,120,33.9697,-103.844,Mitsubishi
Sand Bluff Wind Farm,Sand Bluff Wind Farm,45,32.201622,-101.404799,Gamesa
Savoonga Wind Farm,Savoonga,2,63.69207,-170.496014,DES
Sawtooth Wind Project,Sawtooth Wind Project,14,42.992577,-115.396194,GE Energy
SeaWest Energy Group Wind Farm,SeaWest Energy Group,16,37.7347,-121.652,Micon
SeaWest Windfarms Wind Farm,SeaWest Windfarms,178,37.7347,-121.652,Micon
Searsburg Wind Energy Facility,Searsburg Wind Energy Facility,11,42.861356,-72.964445,Zond
Section 28 Trust Wind Farm,Section 28 Trust,287,33.9095,-116.734,Various
Selawik Wind Project,Selawik Wind Project,3,66.608132,-160.017555,Atlantic Orient Co.
Sentral School Wind Farm,Sentral School,1,43.210574,-94.388514,Windmatic
Seven Mile Hill I & II Wind Farm,Seven Mile Hill I & II,79,41.939079,-106.372225,GE Energy
Shane Cowell Wind Farm,Shane Cowell Wind Farm,1,44.1774,-96.102,Suzlon Energy Company
Shaokatan Hills Wind Farm,Shaokatan Hills,18,44.4039,-96.432767,Vestas
Shaokatan Power Partners Wind Farm,Shaokatan Power Partners,2,44.398108,-96.418469,Gamesa
Sheep Valley Ranch,Sheep Valley Ranch,7,46.45,-110.07,Windmatic
Sheffield Wind,Sheffield Wind,16,44.662191,-72.103879,Clipper
Shepherds Flat Central,Shepherds Flat Central,116,45.655,-120.056,GE Energy
Shepherds Flat North,Shepherds Flat North,106,45.73,-120.056,GE Energy
Sherbino 2,Sherbino 2,60,30.895935,-102.213221,Clipper
Sherbino I Wind Farm,Sherbino I,50,30.930562,-102.199806,Vestas
Shiloh II Wind Farm,Shiloh II,75,38.179998,-121.822,REPower
Shiloh Wind Power Project,Shiloh Wind Power Project,100,38.154041,-121.876066,GE Energy
Shirley,Shirley,8,44.3556,-87.984159,Nordex USA
Sibley Hills Wind Farm,Sibley Hills,1,43.4037,-95.7417,Vestas
Sibley Wind Farm,Sibley Wind Farm,2,43.4037,-95.7417,NEG Micon
Silver Sage Wind Farm,Silver Sage,20,41.141259,-104.983061,Suzlon Energy Company
Silver Star Wind Farm,Silver Star,24,32.332058,-98.466783,Clipper Windpower
Sky River Wind Farm,Sky River,342,35.07665,-118.25529,Vestas
Sleeping Bear Wind Farm,Sleeping Bear Wind Farm,45,36.63,-99.5,Suzlon Energy Company
Smoky Hills II Wind Farm,Smoky Hills II,99,38.886777,-98.178906,GE Energy
Smoky Hills Wind Farm,Smoky Hills Wind Farm,56,38.886777,-98.178906,Vestas
Snyder Wind Project,Snyder Wind Project,21,32.728541,-100.833135,Vestas
Solano County Wind Farm,Solano County,600,38.1535,-121.858,Kenetech
Solano IIA Wind Farm,Solano IIA,8,38.165683,-121.817186,Vestas
Solano Wind Project Wind Farm,Solano Wind Project,21,38.165683,-121.817186,Vestas
"Solano Wind Project, Phase I","Solano Wind Project, Phase I",16,38.165683,-121.817186,Vestas
Solano Wind Project- phase II,Solano Wind Project- phase II,7,38.165683,-121.817186,Vestas
"Solano/Montezuma Wind Project, Phase II","Solano/Montezuma Wind Project, Phase II",7,38.3104969,-121.9017954,Vestas
Somerset Wind Power Project,Somerset Wind Power Project,6,39.979794,-79.009216,GE Energy
South Holt Wind Farm,South Holt Wind Farm,2,41.063297,-72.454444,Atlantic Orient Co.
South Trent Mesa Wind Farm,South Trent Mesa,44,32.444461,-100.236819,Siemens
Southern California Sunbelt Wind Farm I,So. Cal. Sunbelt,52,33.9095,-116.734,Windmatic
Southern California Sunbelt Wind Farm II,So. Cal. Sunbelt,85,33.9095,-116.734,Windmatic
Southern Minnesota Hills Wind Farm,Southern Minnesota Hills,2,43.571537,-94.449473,NEG Micon
Southern Minnesota Municipal Power Agency (SMMPA) Wind Farm I,Southern Minnesota Municipal Power Agency (SMMPA),2,43.656024,-94.460506,Vestas
Southern Minnesota Municipal Power Agency (SMMPA) Wind Farm Ii,Southern Minnesota Municipal Power Agency (SMMPA),2,44.5407,-95.1098,Vestas
Southwest Mesa Wind Farm,Southwest Mesa Wind Farm,107,30.933346,-102.154191,NEG Micon
Spanish Fork Wind Farm,Spanish Fork Wind Farm,9,40.072707,-111.580027,Suzlon Energy Company
Spearville Wind Energy Facility,Spearville Wind Energy Facility,67,37.851699,-99.78025,GE Energy
Spirit Lake II Wind Farm,Spirit Lake II,1,43.411412,-95.09914,NEG Micon
Spirit Lake Wind Farm,Spirit Lake,1,43.411381,-95.10075,WindWorld
Spring Canyon Wind Farm,Spring Canyon Wind Farm,40,40.95366,-103.166993,GE Energy
Springview Wind Project,Springview Wind Project,2,42.824447,-99.792609,GE Energy
St. Mary's Wind Farm,St. Mary's,2,39.280221,-96.118103,GE Energy
St. Olaf Wind Project,St. Olaf Wind Project,1,44.462389,-93.192378,Vestas
Stanton Energy Center Wind Farm,Stanton Energy Center,80,32.159868,-101.76723,GE Energy
Star Point Wind Farm,Star Point Wind Farm,47,45.474734,-120.704412,Suzlon Energy Company
State Fair Wind Energy Education Center Wind Farm,Wind Energy Education Center,1,41.595052,-93.548779,Vestas
Stateline Expansion Wind Farm,Stateline Expansion,60,46.012769,-118.751528,Vestas
Stateline Wind Energy Project,Stateline Wind Energy Project,268,46.012769,-118.751528,Vestas
Stateline Wind Project,Stateline Wind Project,126,45.99956,-118.73457,Vestas
Steel Winds,Steel Winds Wind Farm,8,42.81724,-78.867542,Clipper
Stetson Wind Expansion Wind Farm,Stetson Wind Expansion,17,45.595833,-67.928628,GE Energy
Stetson Wind Farm,Stetson Wind,38,45.595833,-67.928628,GE Energy
Stoney Corners (Northern Power Systems),Stoney Corners (Northern Power Systems),1,44.208,-85.274,Northern Power Systems
Stoney Corners - REpower Wind Farm,Stoney Corners - REpower,7,44.20823,-85.27371,REpower
Stoney Corners II (REpower),Stoney Corners II (REpower),9,44.209,-85.275,REpower
Stoney Corners Wind Farm,Stoney Corners Wind Farm,2,44.208269,-85.273706,Fuhrlander
Stony Creek Wind Farm,Stony Creek Wind Farm,35,40.039256,-78.781979,GE Energy
Storm Lake I Wind Farm,Storm Lake I,145,42.57215,-95.340693,Zond
Storm Lake II Wind Farm,Storm Lake II,106,42.655334,-95.383651,Zond
Story County Hospital Wind Farm,Story County Hospital,1,42.016808,-93.453238,Vestas
Story County Wind Farm,Story County,100,42.301351,-93.45156,GE Energy
Story County Wind Project II,Story County Wind Project II,100,42.301351,-93.45156,GE Energy
Streator Cayuga Ridge Wind Farm,Streator Cayuga Ridge Wind Farm,150,40.955319,-88.428011,Gamesa
Stuart Municipal Utilities Wind Farm,Stuart Municipal Utilities,1,41.493988,-94.327403,Vestas
Sunray I Wind Farm,Sunray I,6,35.961137,-101.804602,GE Energy
Sunray II Wind Farm,Sunray II,27,35.961137,-101.804602,GE Energy
Surf City,Surf City,55,39.38,-73.508,Sterling
Sustainable Technologies Museum Wind Farm,Sustainable Technologies Museum,1,40.6331249,-89.3985283,Clipper
Sweetwater,Sweetwater,25,32.368084,-100.333722,GE Energy
Sweetwater 4a,Sweetwater #4a,135,32.368084,-100.333722,Mitsubishi
Sweetwater 4b,Sweetwater #4b,46,32.368084,-100.333722,Siemens
Sweetwater 5 Wind Farm,Sweetwater 5,35,32.368084,-100.333722,Siemens
Sweetwater Phase II Wind Farm,Sweetwater Phase II,61,32.368084,-100.333722,GE Energy
Sweetwater Phase III Wind Farm,Sweetwater Phase III,90,32.368084,-100.333722,GE Energy
Taconite Ridge Wind Farm,Taconite Ridge,10,47.572837,-92.60077,Clipper
Taloga Wind Farm,Taloga Wind Farm,54,36.08915,-98.979716,Mitsubishi
Tatanka Wind Project I,Tatanka Wind Project,59,45.939171,-98.943915,Acciona
Tatanka Wind Project II,Tatanka Wind Project,61,45.951884,-98.940482,Acciona
Teichert Aggregates,Teichert Aggregates,1,37.616169,-121.356236,GE Energy
Texas Offshore Pilot Research Project,Texas Offshore Pilot Research Project,5,26.186,-97.077,
Texas State Technical College Wind Farm,Texas State Technical College,1,32.4709519,-100.4059384,DeWind
Tholen & Petersen Wind Farm,Tholen & Petersen,8,44.238881,-95.616825,Vestas
Thousand Springs Wind Park,Thousand Springs Wind Park,8,42.7452,-114.828,GE Energy
Three D Metals Wind Turbine,Three D Metals Wind Turbine,1,41.248155,-81.883079,Northern Power Systems
Three Mile Canyon,Three Mile Canyon,6,45.717419,-119.502258,Vestas
Threemile Canyon Wind Farm,Threemile Canyon,6,45.837861,-119.701286,Vestas
Tillamook Offshore Wind Farm,Tillamook Offshore Wind Farm,30,45.527,-124.179,Undetermined
Tillamook Windfloat Phase 1,Tillamook Windfloat Phase 1,1,45.54,-124.156,
Timber Road II,Timber Road II,55,41.023524,-84.717185,Vestas
Tin City Long Range Radar Station Wind Farm,Tin City Long Range Radar Station,1,65.559372,-167.949686,Vestas
Titan I Wind Farm,Titan I,10,44.480053,-99.209476,Clipper
Titan Platform,Titan Platform,1,27.912,-96.833,
Tjaden Farms Wind Farm,Tjaden Farms,1,43.170337,-92.58944,Bonus
Top Crop Wind Farm,Top Crop Wind Farm,68,41.159826,-88.637381,GE Energy
Top Crop Wind Farm (Phase II),Top Crop Wind Farm (Phase II),132,41.202313,-88.530078,GE Energy
Top of Iowa II Wind Farm,Top of Iowa II,40,43.361088,-93.294282,Gamesa
Top of Iowa III Wind Farm,Top of Iowa III,18,43.361088,-93.294282,Vestas
Top of Iowa Wind Farm,Top of Iowa Wind Farm,89,43.361088,-93.294282,NEG Micon
Top of the World (GE),Top of the World (GE),66,42.914132,-105.691223,GE Energy
Top of the World (Siemens),Top of the World (Siemens),44,42.914132,-105.691223,Siemens
Traverse City Light & Power Wind Farm,Traverse City Light & Power,1,44.777032,-85.689917,Vestas
Trent Mesa Wind Farm,Trent Mesa Wind Farm,100,32.295161,-100.150645,GE Energy
Tres Vaqueros I Wind Farm,Tres Vaqueros I,85,37.7347,-121.652,Howden
Tres Vaqueros II Wind Farm,Tres Vaqueros II,1,37.7347,-121.652,Howden
Trimont Area Wind Farm,Trimont Area Wind Farm,67,43.779594,-94.852874,GE Energy
Trinity Hills,Trinity Hills,90,33.401504,-98.7115027,Clipper
Tuana Gulch Wind Park,Tuana Gulch Wind Park,7,42.89,-114.98,GE Energy
Tuana Springs Wind Farm,Tuana Springs Wind Farm,8,42.814261,-114.996665,Suzlon Energy Company
Turkey Track Wind Farm,Turkey Track Wind Farm,113,32.23182529,-100.043478,GE Energy
Turtle Mountain Community College Wind Farm,Turtle Mountain Community College,1,48.884703,-99.751936,Vestas
Turtle Mountain Wind Farm,Turtle Mountain,1,48.839486,-99.745145,NEG Micon
Twin Buttes Wind Farm,Twin Buttes,50,37.674215,-102.639971,GE Energy
Twin Groves I Wind Farm,Twin Groves I,120,40.463317,-88.64753,Vestas
Twin Groves II (07) Wind Farm,Twin Groves II (07),98,40.463317,-88.64753,Vestas
Twin Groves II (08) Wind Farm,Twin Groves II (08),22,40.463317,-88.64753,Vestas
Uilk Wind Farm,Uilk Wind Farm,3,43.994704,-96.365232,Goldwind
Unalakleet,Unalakleet,4,63.875773,-160.78527,Northern Power Systems
University of Delaware Wind,University of Delaware Wind,1,38.783739,-75.160654,Gamesa
University of Minnesota -- Morris Wind Farm,University of Minnesota -- Morris,1,45.5861111,-95.9138889,Vestas
Univesrity of Minnesota -- Morris Wind Farm,University of Minnesota -- Morris,1,45.589631,-95.876809,Vestas
Upper Scioto Valley School,Upper Scioto Valley School,2,40.691542,-83.786353,Northern Power Systems
Valley View Wind Farm,Valley View,5,43.905808,-96.020508,Gamesa
Vansycle Ridge II,Vansycle Ridge II,43,45.8515,-118.458,Siemens
Vansycle Ridge Wind Farm,Vansycle Ridge,38,45.966383,-118.777499,Vestas
Vantage Wind Energy Center,Vantage Wind Energy Center,69,46.965336,-120.245204,GE Energy
Velva Wind Farm,Velva Wind Farm,18,48.089928,-100.907328,Vestas
Venture Wind I Wind Farm,Venture Wind I,12,37.7347,-121.652,Various
Venture Wind II Wind Farm,Venture Wind II,26,37.7347,-121.652,Various
Vermilion Bay,Vermilion Bay,18,29.741,-92.057,XEMC
Victorville Wind Project,Victorville Wind Project,1,34.557649,-117.358299,Vestas
Victory Garden Wind Farm I,Victory Garden,8,35.07665,-118.25529,Zond
Victory Garden Wind Farm II,Victory Garden,1,35.07665,-118.25529,Vestas
Victory Gardens I and IV,Victory Gardens I and IV,2,35.07665,-118.25529,Vestas
Victory Gardens Phase IV Wind Farm I,Victory Gardens- Phase IV,2,35.07665,-118.25529,Vestas
Victory Gardens Phase IV Wind Farm II,Victory Gardens- Phase IV,94,35.07665,-118.25529,Vestas
Victory Wind Farm,Victory Wind Farm,66,42.144715,-95.138183,GE Energy
Viking Energy '83 Wind Farm,Viking Energy '83,26,37.7347,-121.652,Micon
Viking Wind Farm,Viking Wind Farm,8,44.0215,-95.7637,GE Energy
WPS Wind Farm,WPS Wind Farm,14,44.611019,-87.558818,Vestas
Wales Wind Energy Project,Wales Wind Energy Project,2,65.6113,-168.091,Atlantic Orient Co.
Wall Lake Municipal Utilities Wind Farm,Wall Lake Municipal Utilities,1,42.281965,-95.094098,Vestas
Walnut Wind Project Wind Farm,Walnut Wind Project,102,41.484094,-95.185339,GE Energy
Wapsipinicon Wind Project,Wapsipinicon Wind,67,43.686389,-92.615275,GE Energy
Waverly III Wind Farm,Waverly III,1,42.7241,-92.4786,NEG Micon
Waverly Wind Farm,Waverly,2,42.7241,-92.4786,Zond
Waymart Wind Farm,Waymart Wind Farm,43,41.555385,-75.451205,GE Energy
We Energy Wind Farm,We Energy Wind Farm,2,43.657512,-88.439004,Vestas
Weatherford Wind Energy Center,Weatherford Wind Energy Center,98,35.559414,-98.742992,GE Energy
Wege Wind Farm,Wege Wind Farm,8,35.346439,-101.381375,Suzlon Energy Company
Wessington Springs Wind Farm,Wessington Springs Wind Energy Center,34,43.947387,-98.657427,GE Energy
West Stevens Wind,West Stevens Wind,13,45.606472,-96.238174,
West Winds Wind Farm,West Winds,62,33.9095,-116.734,NEG Micon
Westridge Wind Farm,Westridge,18,44.115854,-96.115186,Suzlon Energy Company
Westwind Trust Wind Farm,Westwind Trust,167,33.9095,-116.734,Various
Westwind-PacifiCorp Wind Farm,Westwind-PacifiCorp,2,33.9095,-116.734,NEG Micon
Wethersfield Wind Power Wind Farm,Wethersfield Wind Power,10,42.667741,-78.219803,Vestas
Wheatfield Wind Farm,Wheatfield Wind Farm,46,45.700074,-120.271289,Suzlon Energy Company
Whirlwind Wind Farm,Whirlwind Energy Center,26,34.110142,-101.098967,Siemens
Whispering Willow I Wind Farm,Whispering Willow I,121,42.653045,-93.31162,Vestas
White Creek Wind Power Project,White Creek Wind Power Project,89,45.853153,-120.289578,Siemens
White Oak Wind Energy Center,White Oak Wind Energy Center,100,40.593859,-89.062607,GE Energy
Whitewater Hill Wind Farm I,Whitewater Hill,41,33.9095,-116.734,GE Energy
Whitewater Hill Wind Farm II,Whitewater Hill,3,33.9095,-116.734,GE Energy
Wild Horse II Wind Farm,Wild Horse II,22,47.000782,-120.190609,Vestas
Wild Horse Wind Power Project,Wild Horse Wind Power Project,127,47.000782,-120.190609,Vestas
Wildcat 1 Wind Project,Wildcat 1 Wind Project,125,40.371025,-85.823836,GE Energy
Wildcat Ridge Wind Farm,Wildcat Ridge Wind Farm,100,41.60734,-103.679523,Undetermined
Wildorado Wind Farm,Wildorado Wind Ranch,70,35.302005,-102.314005,Siemens
Williams Stone Wind Turbine,Williams Stone Wind Turbine,1,42.232526,-73.070952,Vestas
Willmar Wind,Willmar Wind,2,45.158659,-95.007498,DeWind
Willow Creek Wind Farm,Willow Creek,35,45.828458,-119.795537,GE Energy
Wilmont Hills Wind Farm,Wilmont Hills,1,43.761108,-95.8276,NEG Micon
Wilton Wind Energy Center I (2005),Wilton Wind Energy Center I,33,47.128392,-100.739837,GE Energy
Wilton Wind Energy Center I (2006),Wilton Wind Energy Center I,33,47.142638,-100.730567,GE Energy
Wilton Wind Energy Center II I,Wilton Wind Energy Center II,33,47.128392,-100.739837,GE Energy
Wilton Wind Energy Center II II,Wilton Wind Energy Center II,33,47.142638,-100.730567,GE Energy
Wind Power Partners '90-'92 Wind Farm,Wind Power Partners '90-'92,967,37.7347,-121.652,Kenetech
Wind Power Partners '94 Wind Farm,Wind Power Partners '94,109,31.3508,-104.443,Kenetech
Wind Turbine Co. test,Wind Turbine Co. test,1,33.8003,-118.309,Wind Turbine Co.
Wind Vision Wind Farm,Wind Vision,1,43.348224,-92.888816,AWE
Windland (Boxcar II) Wind Farm,Windland (Boxcar II),111,35.07665,-118.25529,Various
Windridge Wind Farm,Windridge,36,35.07665,-118.25529,Windmatic
Windway Technologies Wind Farm,Windway Technologies,1,43.3629,-93.4559,Nordex
Windy Flats,Windy Flats,74,45.699622,-120.774622,Siemens
Windy Flats IIa extension,Windy Flats IIa extension,26,45.699622,-120.774622,Siemens
Windy Flats(3Q09 portion),Windy Flats(3Q09 portion),13,45.699622,-120.774622,Siemens
Windy Point (08) Wind Farm,Windy Point (08),4,45.822958,-120.819003,REPower
Windy Point - REpower (09) Wind Farm,Windy Point - REpower (09),20,45.699622,-120.774622,REpower
Windy Point - Siemens Wind Farm,Windy Point - Siemens,42,45.699622,-120.774622,Siemens
Wing River Wind Farm,Wing River Wind,1,46.3254,-95.0864,Nordex
Winnebago I Wind Farm,Winnebago I,10,43.317944,-93.761537,Gamesa
Winona County Wind,Winona County Wind,2,44.101281,-91.975715,Unison
Wolf Ridge Wind Farm,Wolf Ridge,75,33.72911,-97.393545,GE Energy
Wolf Wind Farm,Wolf Wind Farm,5,43.583385,-95.774567,Suzlon Energy Company
Wolverine Creek Wind Farm,Wolverine Creek Wind Energy Project,43,43.422203,-111.83439,GE Energy
Woods Hole Research Center Wind Turbine,Woods Hole Research Center Wind Turbine,1,41.548637,-70.64326,Northern Power Systems
Woodstock Hills Wind Farm,Woodstock Hills,17,43.9948,-96.3175,Vestas
Woodstock Municipal Wind,Woodstock Municipal Wind,1,44.009957,-96.100552,EWT Americas
Woodward Mountain I & II Wind Farm,Woodward Mountain Wind Ranch I and II,242,30.970703,-102.396491,Vestas
Wray School District Wind Farm,Wray School District,1,40.079014,-102.227542,AWE
Wyoming Wind Energy Center,Wyoming Wind Energy Center,80,41.304414,-110.793904,Vestas
Yarbrough Public School System,Yarbrough Public School System,1,36.87268,-101.902701,Entegrity Wind
Zachary Ridge/LJ Wind Farm,Zachary Ridge/LJ Wind Farm,2,43.4037,-95.7417,Gamesa
Zirbel Wind Farm,Zirbel Wind Farm (Glenmore Wind Energy Facility),2,44.355809,-87.983801,Tacke
Zond Windsystem Partners Series 85C Wind Farm,Zond Windsystem Partners Series 85C,200,37.7347,-121.652,Vestas
Zond-PanAero Windsystems Wind Farm,Zond-PanAero Windsystems,460,33.9095,-116.734,Vestas